 { 
    "type" : "FeatureCollection",
    "features" : [
         {
            "type": "Feature",
            "geometry": {
              "type": "Point",
              "coordinates": [
                -77.034084142948,
                38.909671288923
              ]
            },
            "properties": {
              "name": "SweetGreen",
              "phoneFormatted": "(202) 234-7336",
              "phone": "2022347336",
              "address": "1471 P St NW",
              "city": "Washington DC",
              "crossStreet": "United States",
              "postalCode": "at 15th St NW",
              "state": "38.909671288923"
            }
          },
         {
            "type": "Feature",
            "geometry": {
              "type": "Point",
              "coordinates": [
                -77.049766,
                38.900772
              ]
            },
            "properties": {
              "name": "SweetGreen",
              "phoneFormatted": "(202) 507-8357",
              "phone": "2025078357",
              "address": "2221 I St NW",
              "city": "Washington DC",
              "crossStreet": "United States",
              "postalCode": "at 22nd St NW",
              "state": "38.900772"
            }
          },
         {
            "type": "Feature",
            "geometry": {
              "type": "Point",
              "coordinates": [
                -77.043929,
                38.910525
              ]
            },
            "properties": {
              "name": "SweetGreen",
              "phoneFormatted": "(202) 387-9338",
              "phone": "2023879338",
              "address": "1512 Connecticut Ave NW",
              "city": "Washington DC",
              "crossStreet": "United States",
              "postalCode": "at Dupont Circle",
              "state": "38.910525"
            }
          },
         {
            "type": "Feature",
            "geometry": {
              "type": "Point",
              "coordinates": [
                -77.0672,
                38.90516896
              ]
            },
            "properties": {
              "name": "SweetGreen",
              "phoneFormatted": "(202) 337-9338",
              "phone": "2023379338",
              "address": "3333 M St NW",
              "city": "Washington DC",
              "crossStreet": "United States",
              "postalCode": "at 34th St NW",
              "state": "38.90516896"
            }
          },
         {
            "type": "Feature",
            "geometry": {
              "type": "Point",
              "coordinates": [
                -77.002583742142,
                38.887041080933
              ]
            },
            "properties": {
              "name": "SweetGreen",
              "phoneFormatted": "(202) 547-9338",
              "phone": "2025479338",
              "address": "221 Pennsylvania Ave SE",
              "city": "Washington DC",
              "crossStreet": "United States",
              "postalCode": "btwn 2nd & 3rd Sts. SE",
              "state": "38.887041080933"
            }
          },
         {
            "type": "Feature",
            "geometry": {
              "type": "Point",
              "coordinates": [
                -76.933492720127,
                38.99225245786
              ]
            },
            "properties": {
              "name": "SweetGreen",
              "phoneFormatted": "",
              "phone": "",
              "address": "8204 Baltimore Ave",
              "city": "College Park",
              "crossStreet": "United States",
              "postalCode": "",
              "state": "38.99225245786"
            }
          },
         {
            "type": "Feature",
            "geometry": {
              "type": "Point",
              "coordinates": [
                -77.097083330154,
                38.980979
              ]
            },
            "properties": {
              "name": "SweetGreen",
              "phoneFormatted": "(301) 654-7336",
              "phone": "3016547336",
              "address": "4831 Bethesda Ave",
              "city": "Bethesda",
              "crossStreet": "United States",
              "postalCode": "",
              "state": "38.980979"
            }
          },
         {
            "type": "Feature",
            "geometry": {
              "type": "Point",
              "coordinates": [
                -77.359425054188,
                38.958058116661
              ]
            },
            "properties": {
              "name": "SweetGreen",
              "phoneFormatted": "(571) 203-0082",
              "phone": "5712030082",
              "address": "11935 Democracy Dr",
              "city": "Reston",
              "crossStreet": "United States",
              "postalCode": "btw Explorer & Library",
              "state": "38.958058116661"
            }
          },
         {
            "type": "Feature",
            "geometry": {
              "type": "Point",
              "coordinates": [
                -77.10853099823,
                38.880100922392
              ]
            },
            "properties": {
              "name": "SweetGreen",
              "phoneFormatted": "(703) 522-2016",
              "phone": "7035222016",
              "address": "4075 Wilson Blvd",
              "city": "Arlington",
              "crossStreet": "United States",
              "postalCode": "at N Randolph St.",
              "state": "38.880100922392"
            }
          },
         {
            "type": "Feature",
            "geometry": {
              "type": "Point",
              "coordinates": [
                -75.28784,
                40.008008
              ]
            },
            "properties": {
              "name": "SweetGreen",
              "phoneFormatted": "(610) 642-9400",
              "phone": "6106429400",
              "address": "68 Coulter Ave",
              "city": "Ardmore",
              "crossStreet": "United States",
              "postalCode": "",
              "state": "40.008008"
            }
          },
         {
            "type": "Feature",
            "geometry": {
              "type": "Point",
              "coordinates": [
                -75.20121216774,
                39.954030175164
              ]
            },
            "properties": {
              "name": "SweetGreen",
              "phoneFormatted": "(215) 386-1365",
              "phone": "2153861365",
              "address": "3925 Walnut St",
              "city": "Philadelphia",
              "crossStreet": "United States",
              "postalCode": "",
              "state": "39.954030175164"
            }
          },
         {
            "type": "Feature",
            "geometry": {
              "type": "Point",
              "coordinates": [
                -77.043959498405,
                38.903883387232
              ]
            },
            "properties": {
              "name": "SweetGreen",
              "phoneFormatted": "(202) 331-3355",
              "phone": "2023313355",
              "address": "1901 L St. NW",
              "city": "Washington DC",
              "crossStreet": "United States",
              "postalCode": "at 19th St",
              "state": "38.903883387232"
            }
          } ]
}
    